Date/time,Progress,Temperature,Humidity,Magx,Magy,Magz,Pitch,Roll,Yaw,Latitude,Longitude
2020-04-21 00:41:25.532771,1,33.2845,31.8583,-0.06428279727697372,-2.9089226722717285,8.809623718261719,9.636173461252913,60.793430594586646,88.59156968629735,"[25.0, 53.0, 21.0]","[151.0, 9.0, 1.2]"
2020-04-21 00:41:38.357932,2,33.6036,31.8772,-0.5619696378707886,-7.261587619781494,21.699291229248047,350.2976155387066,185.04673980649605,118.04062697210266,"[25.0, 16.0, 45.1]","[150.0, 33.0, 49.2]"
2020-04-21 00:41:51.183919,3,33.5739,31.8203,-1.024185299873352,-10.168028831481934,29.577274322509766,339.72498984507274,318.1304349538233,83.83506692943548,"[24.0, 39.0, 59.3]","[149.0, 59.0, 0.4]"
2020-04-21 00:42:04.033216,4,34.0377,31.8013,-1.0228890180587769,-12.11885929107666,34.49331283569336,12.23181353926607,81.35426026061681,95.5481241861445,"[24.0, 3.0, 4.0]","[149.0, 24.0, 34.1]"
2020-04-21 00:42:16.858006,5,33.6667,31.6685,-1.1191834211349487,-13.250798225402832,37.5695915222168,343.5774999898105,204.4136045942838,115.78072228142055,"[23.0, 28.0, 51.1]","[148.0, 53.0, 5.9]"
2020-04-21 00:42:29.656516,6,33.5925,31.7634,-1.0954740047454834,-13.927903175354004,39.141685485839844,344.30210792866797,338.89445250237753,79.39105898748005,"[22.0, 51.0, 38.6]","[148.0, 19.0, 20.7]"
2020-04-21 00:42:42.467974,7,33.8596,31.6116,-0.8798559308052063,-14.30944538116455,40.31188201904297,11.03708111851567,102.27937123584046,101.94219894746277,"[22.0, 14.0, 17.6]","[147.0, 45.0, 55.6]"
2020-04-21 00:42:55.287982,8,33.6778,31.6685,-0.9257672429084778,-14.568222999572754,40.81314468383789,338.57532728133435,225.61675208005116,110.75498712785512,"[21.0, 36.0, 48.5]","[147.0, 12.0, 50.2]"
2020-04-21 00:43:08.093966,9,33.9709,31.7444,-1.0160177946090698,-14.742789268493652,41.03425979614258,351.8954597478557,358.4435031947653,77.73710135920479,"[20.0, 59.0, 11.5]","[146.0, 40.0, 3.6]"
2020-04-21 00:43:20.917142,10,33.2697,31.7254,-1.2597154378890991,-14.762530326843262,41.09885025024414,9.490586271546798,122.6066084322562,107.6228604499732,"[20.0, 24.0, 21.6]","[146.0, 10.0, 4.4]"
2020-04-21 00:43:33.725632,11,33.3031,31.7065,-1.4431809186935425,-14.645734786987305,40.966365814208984,335.09276750280117,247.38496111585363,104.73635420483411,"[19.0, 46.0, 30.5]","[145.0, 37.0, 52.1]"
2020-04-21 00:43:46.523778,12,33.6741,31.7065,-1.5021764039993286,-14.548993110656738,40.785728454589844,358.0929936813727,17.990178688869154,79.68658761248817,"[19.0, 8.0, 32.5]","[145.0, 5.0, 56.7]"
2020-04-21 00:43:59.327927,13,33.5888,31.5926,-1.5548603534698486,-14.621416091918945,40.44662094116211,3.984701199047351,142.8402378860969,113.53736713909737,"[18.0, 30.0, 27.9]","[144.0, 34.0, 17.4]"
2020-04-21 00:44:12.132846,14,34.0859,31.6875,-1.6625388860702515,-14.707220077514648,39.85280227661133,332.1576046975622,269.99710832550295,97.23418370351884,"[17.0, 52.0, 17.0]","[144.0, 2.0, 53.8]"
2020-04-21 00:44:25.006064,15,33.8819,31.6875,-1.7650146484375,-14.72862434387207,40.08755874633789,3.6053994500953865,38.331240188165,82.39498301464083,"[17.0, 14.0, 0.0]","[143.0, 31.0, 45.1]"
2020-04-21 00:44:37.807397,16,34.0636,31.7444,-1.9344024658203125,-14.710289001464844,39.48469543457031,357.1169342492119,162.22027127860443,117.08057558236567,"[16.0, 38.0, 34.6]","[143.0, 3.0, 12.8]"
2020-04-21 00:44:50.647627,17,33.6852,31.6685,-2.1872832775115967,-14.757579803466797,38.8211669921875,333.1129620397921,293.5459613383061,90.01162748644553,"[16.0, 0.0, 6.7]","[142.0, 32.0, 30.9]"
2020-04-21 00:45:03.476630,18,33.4515,31.6496,-2.1520891189575195,-14.775386810302734,38.54342269897461,8.694225487911039,57.89446608440145,87.96612243381011,"[15.0, 21.0, 33.6]","[142.0, 2.0, 2.2]"
2020-04-21 00:45:16.305959,19,33.6036,31.5926,-2.14180588722229,-14.872365951538086,38.03670120239258,351.0290382988085,181.88723090023154,117.88394243254257,"[14.0, 42.0, 55.5]","[141.0, 31.0, 46.0]"
2020-04-21 00:45:29.105620,20,33.5257,31.6685,-2.3288800716400146,-14.901083946228027,37.678890228271484,337.86181839987813,315.62822247214575,84.65882872447405,"[14.0, 4.0, 12.6]","[141.0, 1.0, 41.7]"
2020-04-21 00:45:41.914410,21,32.8727,31.7065,-2.662583351135254,-14.853166580200195,37.4268913269043,11.092271608330313,78.85029242032263,95.05687649046968,"[13.0, 28.0, 24.4]","[140.0, 34.0, 6.3]"
2020-04-21 00:45:54.722445,22,32.5574,31.7065,-2.7845571041107178,-14.886136054992676,37.00545120239258,343.8624213310376,202.32886693505583,116.72002355645904,"[12.0, 49.0, 33.0]","[140.0, 4.0, 23.2]"
2020-04-21 00:46:07.600727,23,33.4181,31.6496,-2.9438233375549316,-14.879964828491211,37.04302215576172,343.53815639264394,337.3163168040786,80.61787024544107,"[12.0, 10.0, 37.6]","[139.0, 34.0, 50.4]"
2020-04-21 00:46:20.447763,24,33.3105,31.6306,-3.2669079303741455,-14.933674812316895,36.70853042602539,11.598801852273043,100.22450199385294,102.54199883961661,"[11.0, 31.0, 38.4]","[139.0, 5.0, 27.2]"
2020-04-21 00:46:33.313139,25,33.9152,31.7065,-3.4752321243286133,-15.264050483703613,36.36506271362305,337.8475245214926,223.50675638127245,113.0288390648224,"[10.0, 52.0, 35.6]","[138.0, 36.0, 13.1]"
2020-04-21 00:46:46.201474,26,33.6407,31.7254,-3.7777585983276367,-15.50972843170166,35.985225677490234,350.4649637111084,357.22499381829704,79.09583089079543,"[10.0, 13.0, 29.4]","[138.0, 7.0, 7.6]"
2020-04-21 00:46:59.021534,27,33.0434,31.5737,-4.00010347366333,-15.513855934143066,35.21064376831055,9.229550955620898,121.17311565001059,108.73083324656517,"[9.0, 34.0, 20.1]","[137.0, 38.0, 10.2]"
2020-04-21 00:47:11.866516,28,33.6184,31.6685,-4.049933433532715,-15.465088844299316,34.78566360473633,334.6924979268709,246.09247758902296,106.44997353550944,"[8.0, 58.0, 9.0]","[137.0, 11.0, 32.9]"
2020-04-21 00:47:24.876876,29,33.611,31.6496,-3.851231336593628,-15.485268592834473,34.0165901184082,358.51742227672753,17.511336324274364,79.89941630702576,"[8.0, 18.0, 54.3]","[136.0, 42.0, 49.3]"
2020-04-21 00:47:37.688121,30,33.3736,31.6306,-3.7717199325561523,-15.595909118652344,33.27876281738281,4.777736961217783,142.10095187071306,115.3167202103449,"[7.0, 39.0, 37.0]","[136.0, 14.0, 12.1]"
2020-04-21 00:47:50.606281,31,33.5183,31.6496,-3.7055094242095947,-15.549623489379883,32.774749755859375,332.9957850219387,269.099491694969,100.09145673901027,"[7.0, 0.0, 17.5]","[135.0, 45.0, 40.9]"
2020-04-21 00:48:03.400513,32,33.7223,31.6875,-3.8676350116729736,-15.52165699005127,32.489585876464844,4.577784880812953,36.25263945390628,84.23431197699024,"[6.0, 20.0, 56.0]","[135.0, 17.0, 15.1]"
2020-04-21 00:48:16.206055,33,33.6147,31.6875,-3.9531431198120117,-15.628653526306152,32.15398406982422,358.592021389399,161.29912464637985,118.516226704389,"[5.0, 41.0, 32.5]","[134.0, 48.0, 54.1]"
2020-04-21 00:48:29.000665,34,33.6963,31.6875,-4.013422966003418,-15.782282829284668,31.802045822143555,334.5983437691623,291.30472355462564,93.45181618646254,"[5.0, 5.0, 9.4]","[134.0, 22.0, 47.9]"
2020-04-21 00:48:41.831051,35,33.3587,31.5737,-4.160918712615967,-15.827569961547852,31.34162712097168,9.136259963068632,56.02478717647509,90.04541643226958,"[4.0, 25.0, 42.9]","[133.0, 54.0, 35.0]"
2020-04-21 00:48:54.626213,36,33.6555,31.7254,-4.219186782836914,-15.962289810180664,30.81087875366211,352.1115549803638,180.30511320164646,120.9702863524179,"[3.0, 46.0, 15.1]","[133.0, 26.0, 25.4]"
2020-04-21 00:49:07.413663,37,33.6444,31.6685,-4.177164077758789,-16.09374237060547,30.51085662841797,337.6283761944254,313.5433277185669,86.64911852785909,"[3.0, 6.0, 46.3]","[132.0, 58.0, 18.7]"
2020-04-21 00:49:20.279970,38,33.7001,31.6116,-4.124946117401123,-16.046253204345703,29.92018699645996,11.908330657532389,76.99097832446176,95.57084822551313,"[2.0, 27.0, 16.6]","[132.0, 30.0, 14.5]"
2020-04-21 00:49:33.098429,39,33.4997,31.6496,-4.125960350036621,-16.015453338623047,29.572219848632812,345.5819556055342,200.33876837696755,118.7612802314307,"[1.0, 47.0, 46.2]","[132.0, 2.0, 12.1]"
2020-04-21 00:49:45.892406,40,33.7483,31.8393,-4.267749309539795,-16.081756591796875,29.037153244018555,343.8098032612191,334.0247274071917,82.74272160566451,"[1.0, 11.0, 17.8]","[131.0, 36.0, 20.4]"
2020-04-21 00:49:58.732940,41,33.7891,31.6875,-4.224191665649414,-16.132762908935547,28.288116455078125,13.097568191095512,96.94554673938326,103.29993810162375,"[0.0, 31.0, 46.7]","[131.0, 8.0, 20.3]"
2020-04-21 00:50:11.586911,42,33.292,31.5926,-4.136470794677734,-16.228294372558594,27.455978393554688,339.9291117559659,220.4427881611181,115.70758461578805,"[-0.0, 7.0, 44.6]","[130.0, 40.0, 20.6]"
2020-04-21 00:50:24.623244,43,33.7186,31.6685,-4.09412145614624,-16.134912490844727,26.95252799987793,350.88466005258545,354.21539753247396,80.94214713666575,"[-0.0, 47.0, 15.7]","[130.0, 12.0, 20.9]"
2020-04-21 00:50:37.491311,44,33.7297,31.6685,-4.242802143096924,-16.07537269592285,26.798053741455078,11.288490990353731,118.9404907348735,110.10588693027213,"[1.0, 26.0, 46.5]","[129.0, 44.0, 20.6]"
2020-04-21 00:50:50.325190,45,33.496,31.7444,-4.40091609954834,-15.945030212402344,26.328920364379883,336.42292464554635,243.32241923904343,109.82946917456171,"[2.0, 6.0, 16.8]","[129.0, 16.0, 19.3]"
2020-04-21 00:51:03.164005,46,33.407,31.6306,-4.388230323791504,-15.626310348510742,25.944087982177734,359.12273936090514,13.82319126681839,81.96173728539775,"[2.0, 45.0, 46.5]","[128.0, 48.0, 16.5]"
2020-04-21 00:51:16.036757,47,33.6221,31.7254,-4.258999347686768,-15.451057434082031,25.31009292602539,6.940046359510059,139.99096983231271,115.95532923736275,"[3.0, 25.0, 15.2]","[128.0, 20.0, 11.6]"
2020-04-21 00:51:28.848226,48,33.6518,31.8203,-4.129683494567871,-15.56701946258545,24.470468521118164,335.1374471852568,266.23120156434635,102.12375220579088,"[4.0, 1.0, 40.8]","[127.0, 54.0, 14.1]"
2020-04-21 00:51:41.669898,49,33.726,31.5926,-4.020519733428955,-15.63866138458252,24.068866729736328,4.611888015338826,33.92898860770043,85.09290773679587,"[4.0, 41.0, 7.3]","[127.0, 26.0, 3.9]"
2020-04-21 00:51:54.498727,50,33.5702,31.6116,-4.106128215789795,-15.648322105407715,23.773893356323242,0.6124047394628338,159.91318364113587,119.61561395319424,"[5.0, 20.0, 32.3]","[126.0, 57.0, 50.2]"
2020-04-21 00:52:07.337961,51,33.5331,31.6875,-4.052670001983643,-15.649090766906738,23.513334274291992,335.4489738208484,289.7867754832928,94.63713404521572,"[5.0, 59.0, 55.6]","[126.0, 29.0, 32.5]"
2020-04-21 00:52:20.151919,52,33.6518,31.6496,-4.043772220611572,-15.752228736877441,23.128585815429688,9.61080528490184,54.4791597635308,90.05157043271176,"[6.0, 39.0, 17.1]","[126.0, 1.0, 10.3]"
2020-04-21 00:52:32.959601,53,34.1007,31.7824,-4.072003364562988,-15.566871643066406,22.671798706054688,353.8888034995733,179.45080315817395,121.02211382783995,"[7.0, 15.0, 35.0]","[125.0, 34.0, 54.5]"
2020-04-21 00:52:45.764639,54,33.6555,31.6875,-4.076103210449219,-15.361702919006348,22.032024383544922,339.2849532002474,311.3099309920536,88.95710092010891,"[7.0, 54.0, 52.3]","[125.0, 6.0, 22.2]"
2020-04-21 00:52:58.622570,55,33.752,31.6496,-3.954322576522827,-15.453742027282715,21.463254928588867,13.04851633379742,75.34447926276015,96.53590614391175,"[8.0, 34.0, 7.0]","[124.0, 37.0, 43.8]"
2020-04-21 00:53:11.479893,56,33.9894,31.7065,-3.96968412399292,-15.429292678833008,20.827144622802734,346.28313855685946,199.01802835754054,119.67171712703673,"[9.0, 13.0, 19.1]","[124.0, 8.0, 58.9]"
2020-04-21 00:53:24.486798,57,33.6036,31.7065,-4.022195339202881,-15.582002639770508,20.3922061920166,343.8035177796354,333.3462983773127,84.11058993036463,"[9.0, 52.0, 28.3]","[123.0, 40.0, 6.8]"
2020-04-21 00:53:37.377390,58,33.5257,31.8013,-4.13060188293457,-15.439620018005371,20.086029052734375,12.654409296045806,96.94152375796213,104.37599342422425,"[10.0, 31.0, 34.3]","[123.0, 11.0, 7.2]"
2020-04-21 00:53:50.187364,59,33.3587,31.7065,-3.9918105602264404,-15.326194763183594,19.72096061706543,340.54944490431205,220.21750120153442,117.42700277706872,"[11.0, 10.0, 37.0]","[122.0, 41.0, 59.4]"
2020-04-21 00:54:03.024392,60,33.4292,31.7065,-3.9720864295959473,-15.244250297546387,19.701704025268555,350.9607090863517,353.29540264089815,83.57869577893906,"[11.0, 49.0, 36.1]","[122.0, 12.0, 43.0]"
2020-04-21 00:54:15.947407,61,33.1287,31.7254,-3.8976094722747803,-15.550195693969727,19.392534255981445,10.486658371419146,117.87474899791974,112.77601961269438,"[12.0, 25.0, 31.9]","[121.0, 45.0, 33.5]"
2020-04-21 00:54:28.755526,62,33.7186,31.7634,-3.732316732406616,-15.615766525268555,18.81012535095215,335.8703640492396,242.0032501631255,113.11789107122104,"[13.0, 4.0, 23.5]","[121.0, 15.0, 58.7]"
2020-04-21 00:54:41.541564,63,33.3921,31.7824,-3.583533763885498,-15.498564720153809,18.1584529876709,357.9172830095493,12.353846821619396,84.9181983280161,"[13.0, 43.0, 10.8]","[120.0, 46.0, 13.7]"
2020-04-21 00:54:54.339327,64,33.7705,31.6875,-3.469846725463867,-15.394311904907227,17.674503326416016,7.537338291578035,137.82779428065632,119.14199497576722,"[14.0, 21.0, 53.7]","[120.0, 16.0, 17.8]"
2020-04-21 00:55:07.204624,65,33.4663,31.6875,-3.3480353355407715,-15.35381031036377,17.23161506652832,341.3895376816561,273.2304037653711,106.45207040358464,"[15.0, 0.0, 31.9]","[119.0, 46.0, 10.3]"
2020-04-21 00:55:20.003543,66,33.5442,31.6306,-3.32647442817688,-15.2439603805542,16.68182945251465,12.921247711445279,38.03714590288259,92.62293174954647,"[15.0, 39.0, 5.0]","[119.0, 15.0, 50.9]"
2020-04-21 00:55:32.826704,67,33.3699,31.7065,-3.2824840545654297,-15.362292289733887,16.3209285736084,4.382260043650759,167.3400171559059,127.41870892896195,"[16.0, 14.0, 35.6]","[118.0, 47.0, 40.2]"
2020-04-21 00:55:45.623238,68,33.5479,31.6685,-3.0229172706604004,-15.454412460327148,15.930014610290527,341.9283576449001,294.521155257433,99.94874676649202,"[16.0, 52.0, 58.5]","[118.0, 16.0, 55.9]"
2020-04-21 00:55:58.511577,69,33.5368,31.7634,-2.8788766860961914,-15.30772590637207,15.257467269897461,16.85198401274718,58.60671138086121,98.08510916088653,"[17.0, 31.0, 15.7]","[117.0, 45.0, 57.7]"
2020-04-21 00:56:11.335578,70,33.6407,31.6875,-2.5550310611724854,-15.30618667602539,14.806072235107422,357.3561959892809,186.74938302317517,127.33717013065034,"[18.0, 9.0, 26.9]","[117.0, 14.0, 45.2]"
2020-04-21 00:56:24.314525,71,33.5517,31.6685,-2.2420012950897217,-15.093104362487793,14.321016311645508,346.23824372344495,316.24745766758286,92.88475339100056,"[18.0, 47.0, 31.8]","[116.0, 43.0, 17.5]"
2020-04-21 00:56:37.147443,72,33.3736,31.6496,-2.1181278228759766,-15.17542552947998,14.017146110534668,19.157063574599768,81.24359753568427,103.77232764500017,"[19.0, 25.0, 30.1]","[116.0, 11.0, 34.2]"
2020-04-21 00:56:49.976923,73,33.4181,31.7634,-1.9264907836914062,-15.169241905212402,13.577210426330566,351.25388385741707,207.3293030679355,123.5191217053699,"[20.0, 0.0, 27.2]","[115.0, 42.0, 2.8]"
2020-04-21 00:57:02.821694,74,33.4441,31.7444,-1.7192296981811523,-15.125284194946289,13.086146354675293,352.13628197270657,336.6011123281609,89.21192844785293,"[20.0, 38.0, 12.1]","[115.0, 9.0, 47.4]"
2020-04-21 00:57:15.607861,75,33.663,31.7634,-1.6055794954299927,-15.203266143798828,12.914349555969238,19.557695150556032,103.10601537070876,111.44685113983157,"[21.0, 15.0, 49.7]","[114.0, 37.0, 14.5]"
2020-04-21 00:57:28.398163,76,33.8076,31.7254,-1.222733974456787,-15.049256324768066,12.833393096923828,346.250258026195,228.05058070775846,119.78571298428425,"[21.0, 53.0, 19.5]","[114.0, 4.0, 23.2]"
2020-04-21 00:57:41.237572,77,33.3921,31.7634,-0.9251749515533447,-14.989664077758789,12.746459007263184,359.9783094536302,356.36629155022905,87.6972178861867,"[22.0, 30.0, 41.4]","[113.0, 31.0, 12.9]"
2020-04-21 00:57:54.039631,78,33.9338,31.6685,-0.6722206473350525,-15.037787437438965,12.231636047363281,17.616181435581353,125.49613362100843,118.47695311666142,"[23.0, 7.0, 54.8]","[112.0, 57.0, 42.9]"
2020-04-21 00:58:06.879528,79,33.7965,31.6306,-0.5318896174430847,-14.95432186126709,11.865185737609863,342.60828760884925,249.58011561320404,113.71814175586009,"[23.0, 42.0, 8.8]","[112.0, 26.0, 29.4]"
2020-04-21 00:58:19.744036,80,33.1361,31.6116,-0.3243532180786133,-14.955068588256836,11.464377403259277,6.549041508302101,16.195833352393446,88.58015644019426,"[24.0, 19.0, 5.3]","[111.0, 52.0, 19.5]"
2020-04-21 00:58:32.537117,81,33.5108,31.7065,-0.19682396948337555,-14.929977416992188,10.984835624694824,12.061151871343192,146.41851935075323,123.90930309189604,"[24.0, 55.0, 52.4]","[111.0, 17.0, 47.7]"
2020-04-21 00:58:45.348455,82,33.4589,31.6875,-0.2291834056377411,-14.746795654296875,10.746891021728516,341.3578353586235,271.7443321868947,106.56604577026464,"[25.0, 32.0, 29.8]","[110.0, 42.0, 53.4]"
2020-04-21 00:58:58.143487,83,33.5442,31.6685,-0.1660955250263214,-14.770687103271484,10.642840385437012,12.101117869497877,37.31439577547935,92.26305591236766,"[26.0, 8.0, 57.1]","[110.0, 7.0, 35.7]"
2020-04-21 00:59:10.933308,84,33.9412,31.6116,-0.050905559211969376,-14.853950500488281,10.339195251464844,4.484428574576748,165.7140223220927,126.79111016688616,"[26.0, 42.0, 26.9]","[109.0, 34.0, 39.6]"
2020-04-21 00:59:23.770051,85,33.3439,31.6496,0.07351924479007721,-14.600836753845215,9.96277141571045,341.40478949407276,293.30874203824237,99.77032856499295,"[27.0, 18.0, 33.8]","[108.0, 58.0, 34.8]"
2020-04-21 00:59:36.548064,86,33.4404,31.7065,0.31097283959388733,-14.4714994430542,9.699943542480469,16.324249446526146,57.144852822992554,96.69244724949927,"[27.0, 54.0, 29.5]","[108.0, 22.0, 4.4]"
2020-04-21 00:59:49.378889,87,33.6036,31.6875,0.5099508166313171,-14.240297317504883,9.424976348876953,357.7166462026802,185.24283453756712,126.24357488226126,"[28.0, 30.0, 13.6]","[107.0, 45.0, 7.6]"
2020-04-21 01:00:02.242753,88,33.4589,31.6306,0.7113959193229675,-14.222201347351074,8.986441612243652,345.9127459359061,314.63920766523336,93.05598623349279,"[29.0, 5.0, 45.5]","[107.0, 7.0, 43.5]"
2020-04-21 01:00:15.233244,89,33.6889,31.7065,0.9893264174461365,-14.14633846282959,8.723220825195312,19.516896723096256,79.7053706327057,103.37780908835107,"[29.0, 41.0, 5.1]","[106.0, 29.0, 51.2]"
2020-04-21 01:00:28.030921,90,33.5554,31.6875,1.2089293003082275,-14.018777847290039,8.685750007629395,351.80077454293905,206.32925409041894,124.17465594115103,"[30.0, 16.0, 11.6]","[105.0, 51.0, 30.0]"
2020-04-21 01:00:40.834619,91,33.4626,31.6116,1.3863931894302368,-14.097453117370605,8.575347900390625,352.79287830290366,334.8492832117213,90.03174922374039,"[30.0, 48.0, 24.3]","[105.0, 15.0, 39.4]"
2020-04-21 01:00:53.618546,92,33.3699,31.7065,1.6543426513671875,-14.100597381591797,8.188971519470215,20.414527014008502,101.41753796636824,111.64749477688986,"[31.0, 23.0, 4.6]","[104.0, 36.0, 20.1]"
2020-04-21 01:01:06.417918,93,33.5776,31.6306,1.869124174118042,-14.139617919921875,7.680716514587402,347.02891495950206,226.4838172744276,121.53297099662188,"[31.0, 57.0, 30.7]","[103.0, 56.0, 29.4]"
2020-04-21 01:01:19.220507,94,33.3699,31.5926,1.8655669689178467,-14.353838920593262,7.255685806274414,359.384264742904,354.35251870270383,88.78849087025799,"[32.0, 31.0, 41.9]","[103.0, 16.0, 6.3]"
2020-04-21 01:01:31.987999,95,33.5405,31.6496,2.080778121948242,-14.444775581359863,7.0696210861206055,17.51040571099995,123.0397790294184,118.51301651547908,"[33.0, 3.0, 1.7]","[102.0, 38.0, 20.0]"
2020-04-21 01:01:44.789273,96,33.5999,31.7065,2.487255334854126,-14.41431713104248,6.906058311462402,343.2892472238158,246.9679302557002,115.6641582730451,"[33.0, 36.0, 43.0]","[101.0, 56.0, 52.1]"
2020-04-21 01:01:57.627531,97,33.7001,31.6496,2.777730941772461,-14.240710258483887,6.755969047546387,6.027980036900169,13.720613778315844,89.72297003174245,"[34.0, 10.0, 7.8]","[101.0, 14.0, 49.2]"
2020-04-21 01:02:10.394376,98,33.7372,31.6875,3.019335985183716,-14.207505226135254,6.804845333099365,13.450589933442206,143.40301815294927,124.69892760146287,"[34.0, 43.0, 15.7]","[100.0, 32.0, 10.3]"
2020-04-21 01:02:23.197660,99,33.266,31.6116,3.2858736515045166,-14.035604476928711,6.798496246337891,342.21787228834404,268.0304168257003,110.13800247974953,"[35.0, 16.0, 6.0]","[99.0, 48.0, 54.7]"
2020-04-21 01:02:35.961582,100,33.9709,31.6306,3.5113131999969482,-13.869702339172363,6.689589023590088,13.401361344999339,32.03469711309993,92.96413384953445,"[35.0, 46.0, 8.7]","[99.0, 8.0, 25.1]"
2020-04-21 01:02:48.797435,101,33.778,31.6496,3.7247462272644043,-13.646993637084961,6.518125534057617,8.481880029257221,163.41946125156193,127.97729545966394,"[36.0, 18.0, 23.7]","[98.0, 23.0, 56.0]"
2020-04-21 01:03:01.577708,102,33.381,31.6496,3.9660520553588867,-13.505342483520508,6.203953266143799,345.08608557933854,288.78691775107296,103.28839508192644,"[36.0, 50.0, 19.3]","[97.0, 38.0, 47.4]"
2020-04-21 01:03:14.347153,103,33.3884,31.6306,4.159189701080322,-13.499213218688965,6.182299613952637,19.923675469305536,52.51099294286744,97.53167259281874,"[37.0, 21.0, 54.9]","[96.0, 52.0, 58.3]"
2020-04-21 01:03:27.167692,104,33.6444,31.6116,4.339906692504883,-13.443593978881836,6.311737537384033,3.6841054274487357,183.62595117610667,128.65862048975106,"[37.0, 53.0, 9.9]","[96.0, 6.0, 27.9]"
2020-04-21 01:03:39.956127,105,33.4737,31.5926,4.588489055633545,-13.392560958862305,5.885676383972168,349.67809689041894,309.6522850616265,97.32663714412412,"[38.0, 21.0, 41.7]","[95.0, 22.0, 54.6]"
2020-04-21 01:03:52.757656,106,33.407,31.6116,4.760126113891602,-13.456823348999023,5.5526275634765625,23.917370746829324,74.55779856472559,105.4268658393549,"[38.0, 52.0, 15.1]","[94.0, 35.0, 2.1]"
2020-04-21 01:04:05.575050,107,33.1844,31.5926,4.8304524421691895,-13.40963363647461,5.393889904022217,358.0831938540176,203.13108631345216,128.21101087268343,"[39.0, 22.0, 25.7]","[93.0, 46.0, 25.6]"
2020-04-21 01:04:18.359572,108,33.7075,31.5926,4.862444877624512,-13.424724578857422,5.4195075035095215,355.73059517200534,328.9991408102407,93.551427665318,"[39.0, 52.0, 12.9]","[92.0, 57.0, 4.4]"
2020-04-21 01:04:31.129271,109,33.8373,31.5926,4.839351654052734,-13.292411804199219,5.2910966873168945,25.586291612028795,95.97781821701918,112.14062077458644,"[40.0, 21.0, 35.9]","[92.0, 6.0, 57.4]"
2020-04-21 01:04:43.907135,110,33.3958,31.6496,5.1171135902404785,-12.995867729187012,4.940458297729492,353.20464522164116,222.00472948089495,125.07682830786133,"[40.0, 48.0, 21.1]","[91.0, 20.0, 0.5]"
2020-04-21 01:04:56.703628,111,33.5925,31.7065,5.494506359100342,-12.96188735961914,4.956728458404541,2.855579148577271,346.82566816659636,90.72362689609517,"[41.0, 16.0, 55.4]","[90.0, 28.0, 23.4]"
2020-04-21 01:05:09.508512,112,33.5665,31.5737,5.1102375984191895,-12.768932342529297,5.025851249694824,24.484797249864595,118.25491732712264,119.50485560561332,"[41.0, 45.0, 3.1]","[89.0, 35.0, 58.3]"
2020-04-21 01:05:22.338462,113,33.2437,31.6496,5.4217658042907715,-12.657136917114258,5.14035701751709,349.8104719329493,242.57699971378491,119.2582311350625,"[42.0, 12.0, 43.5]","[88.0, 42.0, 44.5]"
2020-04-21 01:05:35.123110,114,33.6741,31.5167,5.765434741973877,-12.501312255859375,4.985337734222412,10.053439962932748,6.558174751882878,90.46945506651149,"[42.0, 39.0, 55.7]","[87.0, 48.0, 41.3]"
2020-04-21 01:05:47.897047,115,33.7186,31.6116,6.066463470458984,-12.497063636779785,5.1274333000183105,21.040334558974457,139.66306611063874,124.64977756019546,"[43.0, 4.0, 36.6]","[86.0, 58.0, 3.2]"
2020-04-21 01:06:00.697320,116,33.8002,31.6306,6.190918922424316,-12.541351318359375,5.429333209991455,348.835435961947,262.55410775296747,111.84376026269018,"[43.0, 30.0, 52.1]","[86.0, 2.0, 23.2]"
2020-04-21 01:06:13.570531,117,33.8819,31.7634,6.303782939910889,-12.570806503295898,5.101546287536621,17.187320687785423,25.637193596818317,91.95049279556955,"[43.0, 56.0, 36.9]","[85.0, 5.0, 52.1]"
2020-04-21 01:06:26.313638,118,33.841,31.6685,6.443100452423096,-12.624582290649414,4.935843467712402,15.328945742935426,160.00891557254278,127.75564216071868,"[44.0, 21.0, 49.9]","[84.0, 8.0, 29.5]"
2020-04-21 01:06:39.077549,119,33.4663,31.5737,6.484298229217529,-12.64475154876709,4.821835994720459,349.8291285946672,282.8019849814168,105.04828211403942,"[44.0, 46.0, 30.4]","[83.0, 10.0, 14.9]"
2020-04-21 01:06:51.847501,120,33.6741,31.5547,6.399922847747803,-12.119112968444824,4.969080448150635,22.485010068438655,45.877161466208804,96.40200028523365,"[45.0, 8.0, 47.2]","[82.0, 15.0, 42.7]"
2020-04-21 01:07:04.651626,121,33.8225,31.4978,6.395759582519531,-12.391620635986328,5.28361701965332,8.604208717292149,179.14057596607196,130.6104836488656,"[45.0, 32.0, 22.2]","[81.0, 15.0, 47.3]"
2020-04-21 01:07:17.428611,122,33.6815,31.6116,6.558948040008545,-12.483847618103027,5.467247486114502,351.46145159874646,303.0341425294914,100.01461028065846,"[45.0, 55.0, 21.9]","[80.0, 14.0, 59.3]"
2020-04-21 01:07:30.221551,123,34.4532,31.6116,6.716026306152344,-12.184578895568848,5.379151344299316,26.555008804275243,67.05919342215705,103.40888644907463,"[46.0, 17.0, 45.2]","[79.0, 13.0, 18.5]"
2020-04-21 01:07:42.986868,124,33.4849,31.5737,6.661534786224365,-11.980010986328125,5.478641510009766,2.154702488547586,197.96447167806608,129.73635603888735,"[46.0, 37.0, 52.1]","[78.0, 15.0, 35.7]"
2020-04-21 01:07:55.822496,125,33.6592,31.7254,6.685605049133301,-11.92965316772461,5.441401481628418,355.99934262527785,322.5130360800457,95.08064554878132,"[46.0, 59.0, 2.7]","[77.0, 12.0, 13.7]"
2020-04-21 01:08:08.594223,126,33.7854,31.5926,6.661268711090088,-11.606961250305176,5.346959590911865,27.511426533373786,89.99392363611686,110.99351099405031,"[47.0, 19.0, 34.2]","[76.0, 7.0, 59.5]"
2020-04-21 01:08:21.362735,127,34.3975,31.6116,6.7433624267578125,-11.52132511138916,5.284744739532471,355.6462743522674,217.19135856900357,126.84181749128433,"[47.0, 39.0, 25.4]","[75.0, 2.0, 53.4]"
2020-04-21 01:08:34.166934,128,33.7001,31.5926,6.936739921569824,-11.780757904052734,5.241620063781738,1.63078012837877,341.6080798294345,91.80863659669754,"[47.0, 58.0, 35.4]","[73.0, 56.0, 55.9]"
2020-04-21 01:08:46.972164,129,33.8188,31.5357,7.178750514984131,-11.46689224243164,5.462852954864502,25.65174019220315,112.02283416234957,117.50746240549147,"[48.0, 15.0, 39.5]","[72.0, 55.0, 17.8]"
2020-04-21 01:08:59.736436,130,33.6147,31.5926,7.129594326019287,-11.273571968078613,5.72438383102417,351.68612298753123,235.98899539136247,120.75357811043173,"[48.0, 33.0, 27.6]","[71.0, 47.0, 43.5]"
2020-04-21 01:09:12.556045,131,33.6815,31.5357,7.266545295715332,-11.210976600646973,5.554549694061279,8.836388191522039,359.89058537874644,89.54641647188679,"[48.0, 50.0, 31.7]","[70.0, 39.0, 20.1]"
2020-04-21 01:09:25.418010,132,33.7631,31.6496,7.492619514465332,-11.596970558166504,5.527873516082764,23.213459988704273,133.93287890645655,122.49289944295381,"[49.0, 6.0, 50.7]","[69.0, 30.0, 8.8]"
2020-04-21 01:09:38.189783,133,33.7817,31.4978,7.608157634735107,-11.186319351196289,5.457334518432617,348.9096007172759,256.56970773806654,112.93549769962502,"[49.0, 22.0, 23.9]","[68.0, 20.0, 10.6]"
2020-04-21 01:09:50.983100,134,33.6778,31.6496,7.704200744628906,-10.89862060546875,5.281853675842285,14.98857521847889,20.145839324891245,90.75998399304714,"[49.0, 36.0, 3.8]","[67.0, 14.0, 55.1]"
2020-04-21 01:10:03.785899,135,33.4812,31.4978,7.508810520172119,-10.795276641845703,5.163506984710693,16.86576904203956,154.52704672582556,126.72543106782732,"[49.0, 50.0, 6.2]","[66.0, 3.0, 31.1]"
2020-04-21 01:10:16.618151,136,33.7743,31.6116,7.563690662384033,-10.853864669799805,5.212166786193848,348.0479074666817,276.8961253117819,105.68721899013744,"[50.0, 3.0, 20.1]","[64.0, 51.0, 24.8]"
2020-04-21 01:10:29.390029,137,33.9152,31.6875,7.690441608428955,-10.828961372375488,5.0467352867126465,21.148077378036824,39.4963270265966,92.74828621138371,"[50.0, 15.0, 44.8]","[63.0, 38.0, 38.1]"
2020-04-21 01:10:42.202150,138,33.7891,31.5547,7.792313575744629,-10.72404956817627,5.22716760635376,11.133441427326211,173.2232005974964,127.50281587840149,"[50.0, 27.0, 19.3]","[62.0, 25.0, 13.0]"
2020-04-21 01:10:54.997133,139,33.7334,31.5167,8.113520622253418,-10.531208992004395,5.407165050506592,351.04581409718367,296.78972745817185,99.52337624536196,"[50.0, 37.0, 15.3]","[61.0, 16.0, 54.4]"
2020-04-21 01:11:07.798131,140,33.8819,31.5926,8.352921485900879,-10.400720596313477,5.266242504119873,25.5496425244898,61.035834008230395,98.87088144376148,"[50.0, 47.0, 11.4]","[60.0, 2.0, 21.6]"
2020-04-21 01:11:20.581285,141,33.6184,31.5167,8.33224105834961,-10.180215835571289,5.066429615020752,4.1697310236629965,192.7307709246521,126.8920057213056,"[50.0, 56.0, 15.3]","[58.0, 47.0, 17.1]"
2020-04-21 01:11:33.374216,142,33.3921,31.5737,8.283236503601074,-10.010310173034668,4.911139965057373,355.30763656142597,316.85886205113655,93.67914537260806,"[51.0, 4.0, 26.4]","[57.0, 31.0, 43.5]"
2020-04-21 01:11:46.143451,143,33.6889,31.5547,8.369155883789062,-9.990494728088379,4.58937931060791,27.84931086897244,83.69552616469213,105.84842511492808,"[51.0, 11.0, 44.2]","[56.0, 15.0, 43.5]"
2020-04-21 01:11:58.941266,144,33.8188,31.4978,8.438608169555664,-10.005045890808105,4.736048698425293,358.52817907761835,212.07919420168082,124.38169263527246,"[51.0, 17.0, 40.5]","[55.0, 5.0, 13.2]"
2020-04-21 01:12:11.766155,145,33.7186,31.5357,8.441118240356445,-10.02656078338623,4.962444305419922,1.6191359365043676,335.79788208176745,89.80632566037329,"[51.0, 23.0, 14.2]","[53.0, 48.0, 30.4]"
2020-04-21 01:12:24.615478,146,34.5682,31.4788,8.609732627868652,-10.012683868408203,5.222571849822998,27.25449189227083,106.51855546496554,112.456455551997,"[51.0, 27.0, 53.2]","[52.0, 31.0, 29.8]"
2020-04-21 01:12:37.418540,147,34.1267,31.4978,8.74318790435791,-9.81272029876709,5.438118934631348,353.87994815931444,232.10743986717924,118.66310309230094,"[51.0, 31.0, 37.2]","[51.0, 14.0, 14.4]"
2020-04-21 01:12:50.227100,148,33.6741,31.5357,8.693288803100586,-9.633660316467285,5.00539493560791,8.007247622512097,355.3935688789212,86.94225658665769,"[51.0, 34.0, 25.9]","[49.0, 56.0, 47.5]"
2020-04-21 01:13:03.003044,149,33.893,31.5357,8.807665824890137,-9.372013092041016,4.962769031524658,24.426481094731027,128.7876564235509,119.81243268431733,"[51.0, 36.0, 19.1]","[48.0, 39.0, 12.2]"
2020-04-21 01:13:15.797327,150,33.7965,31.4788,8.838937759399414,-9.306069374084473,4.430813312530518,350.1349793430585,251.73090120170605,113.55292631002666,"[51.0, 37.0, 14.1]","[47.0, 27.0, 30.5]"
2020-04-21 01:13:28.568183,151,33.5257,31.5357,8.774253845214844,-9.194745063781738,4.728299617767334,13.937748053351488,14.797480185880271,88.3856531431998,"[51.0, 37.0, 20.2]","[46.0, 9.0, 48.5]"
2020-04-21 01:13:41.356990,152,33.7631,31.4788,9.130513191223145,-8.80290699005127,4.353947162628174,19.178037377993583,149.29438416116542,124.6180171805549,"[51.0, 36.0, 30.6]","[44.0, 52.0, 7.8]"
2020-04-21 01:13:54.177546,153,33.8076,31.4788,9.106857299804688,-8.713642120361328,4.6711955070495605,348.7750374528902,271.32632460968995,106.80189220230518,"[51.0, 34.0, 45.2]","[43.0, 34.0, 31.7]"
2020-04-21 01:14:06.977754,154,33.6555,31.4598,9.132283210754395,-8.765181541442871,4.8354105949401855,20.054782657971224,33.808104504674965,91.15997353122144,"[51.0, 32.0, 18.7]","[42.0, 23.0, 0.8]"
2020-04-21 01:14:19.772974,155,33.7409,31.5167,9.311874389648438,-8.656493186950684,4.650606155395508,13.11533009803213,168.01828226124488,126.37472817470385,"[51.0, 28.0, 46.8]","[41.0, 5.0, 42.8]"
2020-04-21 01:14:32.581757,156,33.7297,31.4029,9.433209419250488,-8.434218406677246,4.685396671295166,351.39971266506507,291.4225511479975,100.07835643618218,"[51.0, 24.0, 19.7]","[39.0, 48.0, 38.9]"
2020-04-21 01:14:45.377537,157,33.752,31.4978,9.661133766174316,-8.2352294921875,4.970883846282959,25.71048664925443,54.6410591525222,95.90110836245076,"[51.0, 18.0, 57.9]","[38.0, 31.0, 52.3]"
2020-04-21 01:14:58.187562,158,33.6741,31.4788,9.86939811706543,-7.923822402954102,5.116353988647461,7.084614570369372,187.1243330878522,126.01678528106015,"[51.0, 12.0, 41.7]","[37.0, 15.0, 25.9]"
2020-04-21 01:15:10.982948,159,33.7891,31.4788,9.813857078552246,-7.886260509490967,5.185427188873291,354.3047786686132,311.0900774479546,93.51021430386614,"[51.0, 6.0, 6.5]","[36.0, 5.0, 12.9]"
2020-04-21 01:15:23.837661,160,33.9598,31.5357,9.743409156799316,-7.934667587280273,5.130764007568359,29.320513125625677,76.42987145395604,102.22026960895234,"[50.0, 58.0, 7.1]","[34.0, 49.0, 33.7]"
2020-04-21 01:15:36.592328,161,33.7409,31.4408,9.600235939025879,-7.811243057250977,5.193735122680664,1.5589319811172306,206.89917873514315,123.84254482294834,"[50.0, 49.0, 14.7]","[33.0, 34.0, 23.1]"
2020-04-21 01:15:49.371501,162,33.6815,31.4029,9.728504180908203,-7.674015998840332,5.052587985992432,0.5228633606823467,330.166082045032,88.78316332270538,"[50.0, 39.0, 30.0]","[32.0, 19.0, 43.7]"
2020-04-21 01:16:02.125543,163,33.5702,31.308,10.006307601928711,-7.638984203338623,4.715907573699951,29.230443421040718,99.39021487730339,108.98037420789159,"[50.0, 28.0, 53.7]","[31.0, 5.0, 37.9]"
2020-04-21 01:16:14.903150,164,33.8781,31.4788,10.239009857177734,-7.307126522064209,4.770936965942383,356.1002181160166,225.90418010070363,119.20219626311172,"[50.0, 18.0, 21.1]","[29.0, 57.0, 46.1]"
2020-04-21 01:16:27.669554,165,32.984,31.4408,10.284444808959961,-7.117769241333008,4.7223968505859375,6.5564023177932595,349.045640156296,86.5850172024985,"[50.0, 6.0, 7.5]","[28.0, 44.0, 51.4]"
2020-04-21 01:16:40.443035,166,33.5554,31.308,10.238218307495117,-6.993090629577637,4.645738124847412,27.303725603355577,121.54634450701677,115.91844621584468,"[49.0, 53.0, 4.4]","[27.0, 32.0, 36.8]"
2020-04-21 01:16:53.210994,167,33.5813,31.3839,10.085941314697266,-6.941596031188965,4.845854759216309,352.51508938671736,245.23626556523766,113.45229030279569,"[49.0, 39.0, 12.7]","[26.0, 21.0, 4.1]"
2020-04-21 01:17:06.009379,168,33.7594,31.5167,10.048003196716309,-7.01701545715332,5.114090919494629,13.636320706221424,7.477720131633932,84.78022850678185,"[49.0, 24.0, 33.2]","[25.0, 10.0, 15.1]"
2020-04-21 01:17:18.779861,169,33.7112,31.4029,10.247492790222168,-6.858242034912109,5.076846122741699,23.258501671185922,142.90267947548915,120.56147220983596,"[49.0, 10.0, 19.7]","[24.0, 5.0, 32.9]"
2020-04-21 01:17:31.596415,170,33.9412,31.4029,10.21187686920166,-6.660645961761475,5.03358268737793,352.2955218567899,265.71261945161314,106.79456340932576,"[48.0, 54.0, 10.8]","[22.0, 56.0, 12.0]"
2020-04-21 01:17:44.384282,171,33.637,31.4978,10.127541542053223,-6.629057884216309,4.9943952560424805,21.177833097155983,27.659110591155095,87.693051470793,"[48.0, 37.0, 16.8]","[21.0, 47.0, 38.9]"
2020-04-21 01:17:57.301139,172,33.4329,31.346,10.199545860290527,-6.633825778961182,4.804553508758545,17.609047302993275,164.56780729633783,123.85783078631083,"[48.0, 19.0, 38.6]","[20.0, 39.0, 54.6]"
2020-04-21 01:18:10.058135,173,33.6667,31.5357,10.244424819946289,-6.3358941078186035,5.034359455108643,352.0782620770282,286.08238140580136,99.14132278394813,"[48.0, 1.0, 17.1]","[19.0, 33.0, 0.2]"
2020-04-21 01:18:22.838709,174,33.726,31.346,10.445420265197754,-6.14127779006958,4.9228692054748535,25.323534234658407,49.167079174296354,91.56236729598356,"[47.0, 43.0, 42.8]","[18.0, 31.0, 59.5]"
2020-04-21 01:18:35.626396,175,34.212,31.308,10.416969299316406,-5.984170436859131,4.54151725769043,9.634196121488195,183.44783350293108,124.30546772413513,"[47.0, 24.0, 0.9]","[17.0, 26.0, 43.0]"
2020-04-21 01:18:48.430043,176,33.5962,31.5167,10.2654390335083,-5.8689656257629395,4.555698394775391,354.55561181635323,305.9967200065115,92.32370799219737,"[47.0, 3.0, 38.6]","[16.0, 22.0, 18.3]"
2020-04-21 01:19:01.233940,177,33.7594,31.4408,10.265241622924805,-5.651237964630127,4.923983573913574,30.9484921293928,71.0657004270165,97.70621807705841,"[46.0, 42.0, 36.9]","[15.0, 18.0, 45.8]"
2020-04-21 01:19:14.068213,178,33.9894,31.4788,10.253944396972656,-5.607151031494141,5.037042140960693,4.997013781218696,203.69427639165474,122.78125636933342,"[46.0, 20.0, 56.8]","[14.0, 16.0, 5.9]"
2020-04-21 01:19:26.868204,179,33.8744,31.3839,10.423073768615723,-5.3672332763671875,5.072547435760498,1.6823277794882676,325.9638867053571,88.36694525506314,"[46.0, 0.0, 23.4]","[13.0, 19.0, 1.9]"
2020-04-21 01:19:39.671820,180,34.1675,31.4219,10.715397834777832,-4.948997974395752,5.018610954284668,33.10685239768434,95.57366226345118,107.05635089983402,"[45.0, 37.0, 32.1]","[12.0, 18.0, 3.3]"
2020-04-21 01:19:52.474244,181,33.7854,31.4598,10.909063339233398,-4.749536514282227,4.779042720794678,0.494482804103033,222.90916947040972,119.40633695702505,"[45.0, 14.0, 5.3]","[11.0, 17.0, 57.4]"
2020-04-21 01:20:05.280155,182,33.292,31.4219,11.066380500793457,-4.749389171600342,4.878347396850586,8.860965773476684,344.2268494892982,85.66811894793766,"[44.0, 50.0, 3.8]","[10.0, 18.0, 44.0]"
2020-04-21 01:20:18.147034,183,33.7817,31.327,10.919196128845215,-4.6476640701293945,4.95063591003418,31.301445569847797,119.19558463999515,114.90626682236216,"[44.0, 25.0, 28.7]","[9.0, 20.0, 23.0]"
2020-04-21 01:20:30.916955,184,33.5813,31.4219,10.610133171081543,-4.654211521148682,4.758473873138428,355.8502844188129,243.02878940662458,114.10902665187075,"[44.0, 2.0, 18.0]","[8.0, 27.0, 17.4]"
2020-04-21 01:20:43.716792,185,33.6815,31.3839,10.626774787902832,-4.7354254722595215,4.843299865722656,15.510541689945848,4.43111083725516,85.45929957444287,"[43.0, 36.0, 40.8]","[7.0, 30.0, 36.1]"
2020-04-21 01:20:56.495395,186,33.7186,31.365,10.797937393188477,-4.671247959136963,4.852417469024658,25.777606918228145,141.1635767090205,121.16479647960152,"[43.0, 10.0, 32.7]","[6.0, 34.0, 46.0]"
2020-04-21 01:21:09.259802,187,33.7483,31.4029,10.839203834533691,-4.582356929779053,4.661066055297852,353.16229676812657,262.9803935194463,108.43281160251,"[42.0, 43.0, 54.5]","[5.0, 39.0, 46.6]"
2020-04-21 01:21:22.063152,188,33.9783,31.3839,10.9075288772583,-4.453717231750488,4.466884136199951,21.599498240661305,24.243023921171776,87.24670543872183,"[42.0, 16.0, 47.1]","[4.0, 45.0, 37.3]"
2020-04-21 01:21:34.840011,189,34.0748,31.4598,11.085745811462402,-4.252070426940918,4.488767147064209,19.386619402414723,162.21211603273545,123.84236723802992,"[41.0, 51.0, 19.8]","[3.0, 56.0, 21.9]"
2020-04-21 01:21:47.601763,190,34.0785,31.365,11.37472152709961,-4.173221111297607,4.607313632965088,353.7906340444064,283.76994573021267,100.08991994644701,"[41.0, 23.0, 18.9]","[3.0, 3.0, 47.2]"
2020-04-21 01:22:00.381128,191,33.7817,31.4219,11.582244873046875,-4.271904945373535,4.696911811828613,26.87455237440512,45.92392777145588,90.59926964187675,"[40.0, 54.0, 51.2]","[2.0, 12.0, 0.7]"
2020-04-21 01:22:13.141064,192,33.9078,31.5547,11.443585395812988,-4.113823413848877,4.467710971832275,12.126906102482906,181.50911162777965,124.27928077885728,"[40.0, 25.0, 57.7]","[1.0, 21.0, 1.5]"
2020-04-21 01:22:25.911160,193,33.9635,31.3839,11.297335624694824,-3.953361749649048,4.370542526245117,355.59678109399425,303.2793599810732,93.05481144095555,"[39.0, 58.0, 55.2]","[-0.0, 34.0, 39.1]"
2020-04-21 01:22:38.680589,194,33.6704,31.4219,11.213739395141602,-3.8660879135131836,4.508518218994141,30.061465707167,67.74732815084667,96.20369940306067,"[39.0, 29.0, 14.2]","[0.0, 14.0, 51.2]"
2020-04-21 01:22:51.460094,195,33.7334,31.2891,11.228326797485352,-3.6927084922790527,4.542921543121338,4.61183935024099,200.19486995153372,122.38266018974981,"[38.0, 59.0, 9.6]","[1.0, 3.0, 36.4]"
2020-04-21 01:23:04.255264,196,33.8893,31.4598,11.297896385192871,-3.948404312133789,4.397327423095703,359.2546397052882,323.0266321546848,87.87299963466616,"[38.0, 28.0, 42.2]","[1.0, 51.0, 37.5]"
2020-04-21 01:23:17.051037,197,34.1156,31.4408,11.390763282775879,-3.906315803527832,4.247412204742432,30.732443000661544,91.41116056813782,104.65577163300631,"[37.0, 57.0, 52.7]","[2.0, 38.0, 55.3]"
2020-04-21 01:23:29.855677,198,34.0488,31.365,11.429354667663574,-3.9926633834838867,4.432753562927246,359.0020144866647,219.81893234270748,119.6079231601888,"[37.0, 29.0, 6.5]","[3.0, 21.0, 57.2]"
2020-04-21 01:23:42.647357,199,34.034,31.3839,11.660853385925293,-3.79960036277771,4.194392204284668,6.291893423787584,341.84829416744924,85.36512492616673,"[36.0, 57.0, 36.4]","[4.0, 7.0, 54.3]"
2020-04-21 01:23:55.476694,200,33.4107,31.4598,11.709097862243652,-3.7870211601257324,3.952899694442749,29.36013505300092,114.55875362758107,113.04848951906453,"[36.0, 25.0, 46.2]","[4.0, 53.0, 10.7]"
2020-04-21 01:24:08.265542,201,33.5479,31.4219,11.820508003234863,-3.8792340755462646,3.769376754760742,354.58179321210235,239.17680860154752,114.76104334022934,"[35.0, 53.0, 36.6]","[5.0, 37.0, 47.5]"
2020-04-21 01:24:21.071167,202,33.5739,31.3839,11.968877792358398,-3.8180527687072754,3.7831993103027344,12.502976318183807,0.8888398908112922,84.1543509523769,"[35.0, 21.0, 8.2]","[6.0, 21.0, 45.4]"
2020-04-21 01:24:33.874209,203,33.8596,31.4978,11.816852569580078,-3.7000529766082764,3.874985694885254,25.25450492781167,136.40902738626127,117.85647141170078,"[34.0, 50.0, 53.5]","[7.0, 1.0, 46.8]"
2020-04-21 01:24:46.687294,204,33.893,31.3839,11.71871280670166,-3.6369094848632812,3.9307963848114014,352.08217919051725,258.9935984405315,107.53863055712861,"[34.0, 17.0, 50.7]","[7.0, 44.0, 32.7]"
2020-04-21 01:24:59.473866,205,33.9783,31.4598,12.049481391906738,-3.506175994873047,3.8911688327789307,19.401381148758414,20.37232327512699,83.84635723213351,"[33.0, 44.0, 30.7]","[8.0, 26.0, 42.4]"
2020-04-21 01:25:12.242834,206,33.8819,31.4219,12.242060661315918,-3.3940768241882324,3.873913288116455,19.3442824748444,157.15776238654766,121.24475067402568,"[33.0, 10.0, 54.3]","[9.0, 8.0, 17.0]"
2020-04-21 01:25:25.047720,207,33.7965,31.365,12.265464782714844,-3.3873093128204346,3.8395628929138184,351.21997709082984,279.67013834129085,99.97272073047877,"[32.0, 37.0, 2.0]","[9.0, 49.0, 17.3]"
2020-04-21 01:25:37.971452,208,33.7149,31.365,12.347195625305176,-3.3116214275360107,3.7560791969299316,24.516769365369424,42.47526280667889,89.07336440016088,"[32.0, 5.0, 32.3]","[10.0, 26.0, 38.7]"
2020-04-21 01:25:50.756598,209,34.212,31.4788,12.02170181274414,-3.5028276443481445,3.1573805809020996,12.251414474636714,177.94969150314523,123.96599366200715,"[31.0, 31.0, 10.8]","[11.0, 6.0, 35.5]"
2020-04-21 01:26:03.529554,210,33.496,31.4408,12.361306190490723,-3.5744032859802246,3.0890820026397705,353.31803575337347,300.13794083082547,93.64847782323471,"[30.0, 56.0, 34.9]","[11.0, 46.0, 0.7]"
2020-04-21 01:26:16.323184,211,33.9152,31.308,12.576986312866211,-3.5345873832702637,3.0642731189727783,28.361648481256974,64.54031527890473,94.87530957176322,"[30.0, 21.0, 45.1]","[12.0, 24.0, 55.1]"
2020-04-21 01:26:29.127980,212,33.9523,31.365,12.915891647338867,-3.3673555850982666,3.2821240425109863,5.456790953405866,197.07022233079297,122.53614820077834,"[29.0, 46.0, 41.8]","[13.0, 3.0, 19.5]"
2020-04-21 01:26:41.931077,213,34.0154,31.4029,13.014470100402832,-3.4458792209625244,3.4767730236053467,358.80748408235695,320.1240954555637,88.49079707528298,"[29.0, 14.0, 8.8]","[13.0, 38.0, 20.9]"
2020-04-21 01:26:54.732968,214,34.0896,31.2891,12.96790885925293,-3.663240432739258,3.8452961444854736,31.055145533282552,87.45101005717525,102.70297273797547,"[28.0, 38.0, 41.0]","[14.0, 15.0, 50.2]"
2020-04-21 01:27:07.538770,215,34.123,31.4029,13.165313720703125,-3.863990306854248,3.9944067001342773,0.21559542807955495,216.36894915142068,119.58851176256763,"[28.0, 3.0, 1.0]","[14.0, 52.0, 52.0]"
2020-04-21 01:27:20.350458,216,33.8744,31.4978,13.49333667755127,-3.9821813106536865,3.8270137310028076,4.337974377732865,338.66192041963177,85.29820273267894,"[27.0, 27.0, 9.3]","[15.0, 29.0, 27.2]"
2020-04-21 01:27:33.147841,217,33.7223,31.327,13.598773002624512,-4.068093299865723,3.5242764949798584,30.05930395229469,110.29214618893837,111.21330648154132,"[26.0, 51.0, 6.4]","[16.0, 5.0, 36.6]"
2020-04-21 01:27:45.906884,218,34.1082,31.2891,13.658112525939941,-4.110412120819092,3.64402437210083,355.46896349518755,234.9987818862507,115.61909268490136,"[26.0, 17.0, 40.1]","[16.0, 38.0, 36.9]"
2020-04-21 01:27:58.681587,219,33.9412,31.4219,13.847036361694336,-4.168544769287109,3.2156968116760254,11.375511869247925,357.1768345813461,84.43877368979457,"[25.0, 41.0, 16.6]","[17.0, 13.0, 58.9]"
2020-04-21 01:28:11.520300,220,34.4087,31.327,14.069157600402832,-4.0741167068481445,2.9078211784362793,25.915597230029913,132.6740067405315,117.03223150342032,"[25.0, 4.0, 42.9]","[17.0, 48.0, 57.3]"
2020-04-21 01:28:24.353117,221,33.841,31.4598,14.264747619628906,-4.0941362380981445,2.9610233306884766,352.06888166597685,255.27613138096865,108.74822973838118,"[24.0, 27.0, 59.5]","[18.0, 23.0, 33.0]"
2020-04-21 01:28:37.156749,222,34.3159,31.365,14.547948837280273,-4.129724502563477,3.0568432807922363,17.19269433911493,17.52655740083974,85.40594213664671,"[23.0, 51.0, 6.6]","[18.0, 57.0, 46.7]"
2020-04-21 01:28:49.928566,223,33.778,31.4219,14.763975143432617,-4.12945556640625,3.1561992168426514,19.53017461084276,153.662426739172,121.84821154757465,"[23.0, 16.0, 56.0]","[19.0, 29.0, 3.6]"
2020-04-21 01:29:02.750878,224,34.0043,31.365,14.874529838562012,-4.071655750274658,3.3021433353424072,350.84548123373264,275.96984237730146,102.58612869184407,"[22.0, 39.0, 46.0]","[20.0, 2.0, 37.1]"
2020-04-21 01:29:15.532138,225,33.8856,31.308,15.207258224487305,-3.971296787261963,3.1796655654907227,23.176201306781852,38.29637890264125,89.09242062794522,"[22.0, 2.0, 27.6]","[20.0, 35.0, 50.7]"
2020-04-21 01:29:28.299271,226,33.7075,31.2701,15.649002075195312,-4.000436782836914,3.0624420642852783,13.6216579976207,173.34837064422607,123.88821146773904,"[21.0, 25.0, 1.2]","[21.0, 8.0, 45.2]"
2020-04-21 01:29:41.057381,227,34.1341,31.3839,15.831530570983887,-4.065060615539551,3.0166850090026855,353.60309754036535,295.47055155206476,96.03131225859872,"[20.0, 47.0, 27.0]","[21.0, 41.0, 21.2]"
2020-04-21 01:29:53.853302,228,34.1898,31.308,16.616724014282227,-4.048603534698486,3.0203168392181396,27.69207649918416,59.42153245827622,94.81522439763462,"[20.0, 12.0, 39.5]","[22.0, 11.0, 10.9]"
2020-04-21 01:30:06.649281,229,34.0525,31.365,16.777790069580078,-4.081231117248535,3.2731029987335205,6.709405385390715,192.19994228273706,124.7675027007298,"[19.0, 34.0, 51.2]","[22.0, 43.0, 13.3]"
2020-04-21 01:30:19.409848,230,33.9857,31.2891,16.89696502685547,-4.170657157897949,3.2930185794830322,356.438363706351,314.5850510953043,91.01096612428843,"[18.0, 56.0, 56.0]","[23.0, 14.0, 59.2]"
2020-04-21 01:30:32.182303,231,34.1527,31.3839,17.134626388549805,-4.305576324462891,3.2504236698150635,29.798390726000203,80.78568799334828,101.96118004316624,"[18.0, 18.0, 54.3]","[23.0, 46.0, 29.3]"
2020-04-21 01:30:45.702197,232,33.8299,31.327,17.399215698242188,-4.448357105255127,3.4469099044799805,0.2529278547006695,212.58333046431946,122.14928628618881,"[17.0, 40.0, 46.2]","[24.0, 17.0, 44.1]"
2020-04-21 01:30:58.490146,233,33.9598,31.327,17.564327239990234,-4.426711082458496,3.4910666942596436,2.68437618816267,334.63900559283866,86.434623267164,"[17.0, 2.0, 32.0]","[24.0, 48.0, 44.4]"
2020-04-21 01:31:11.277435,234,34.0451,31.346,17.71367645263672,-4.539510726928711,3.4499926567077637,29.37875756377296,105.45561410557148,109.79428687014698,"[16.0, 24.0, 12.1]","[25.0, 19.0, 30.7]"
2020-04-21 01:31:24.147181,235,34.2158,31.5167,18.1423282623291,-4.729222297668457,3.4149370193481445,355.08601399833196,230.83639630415323,116.93734651547051,"[15.0, 45.0, 46.7]","[25.0, 50.0, 3.6]"
2020-04-21 01:31:36.901406,236,33.9746,31.2701,18.498863220214844,-4.818967342376709,3.6967718601226807,8.568697710023606,353.3748449980214,84.93202263089621,"[15.0, 10.0, 13.9]","[26.0, 18.0, 4.3]"
2020-04-21 01:31:49.661533,237,34.1638,31.327,18.876136779785156,-4.911505222320557,3.957092761993408,26.82594874827131,127.03183335399409,116.54055350582779,"[14.0, 31.0, 38.6]","[26.0, 48.0, 13.3]"
2020-04-21 01:32:02.464529,238,34.097,31.308,19.33277130126953,-4.992823123931885,4.062211036682129,352.5205671984317,250.05135085461075,111.49986706816921,"[13.0, 52.0, 58.6]","[27.0, 18.0, 10.6]"
2020-04-21 01:32:15.242947,239,34.123,31.3839,19.728757858276367,-4.985661029815674,4.177842140197754,15.528479474253594,12.105751299076083,85.20926683949621,"[13.0, 14.0, 14.0]","[27.0, 47.0, 57.0]"
2020-04-21 01:32:28.035391,240,34.3345,31.346,20.06791114807129,-5.188129425048828,4.107087135314941,21.489810525232777,147.69587400857233,121.73940663409635,"[12.0, 35.0, 25.1]","[28.0, 17.0, 32.9]"
2020-04-21 01:32:40.839024,241,33.867,31.2511,20.668991088867188,-5.491815090179443,4.251229763031006,350.69253110010123,269.99516172158945,105.00719852618181,"[11.0, 59.0, 31.7]","[28.0, 44.0, 43.4]"
2020-04-21 01:32:53.643101,242,34.0859,31.3839,21.194278717041016,-5.644627571105957,4.461645603179932,20.905390511542514,32.34841794696237,88.3689601608683,"[11.0, 20.0, 35.2]","[29.0, 14.0, 0.8]"
2020-04-21 01:33:06.443683,243,33.8633,31.308,21.52126693725586,-5.866250038146973,4.949735164642334,14.342159285239712,167.338815042612,126.00731863887052,"[10.0, 41.0, 35.1]","[29.0, 43.0, 9.3]"
2020-04-21 01:33:19.217259,244,34.0711,31.308,21.80461311340332,-6.166782379150391,5.567164897918701,342.0911142226323,276.1730131843526,97.54009421606537,"[10.0, 2.0, 31.6]","[30.0, 12.0, 9.6]"
2020-04-21 01:33:31.977384,245,33.9635,31.4029,21.589046478271484,-6.136236667633057,5.7317609786987305,14.146086752283448,39.85750742990688,84.59182456871622,"[9.0, 26.0, 25.5]","[30.0, 38.0, 49.1]"
2020-04-21 01:33:44.750846,246,33.8893,31.308,22.234682083129883,-6.450751304626465,5.944067478179932,4.349690286593553,169.5745818447673,118.78309585563973,"[8.0, 47.0, 16.1]","[31.0, 7.0, 35.0]"
2020-04-21 01:33:57.557332,247,34.1824,31.2511,22.83462905883789,-6.784071922302246,6.345947742462158,343.7334639444132,296.9344864874411,90.86736139698891,"[8.0, 8.0, 3.9]","[31.0, 36.0, 14.1]"
2020-04-21 01:34:10.365240,248,34.0154,31.4598,23.40485954284668,-6.671045780181885,6.9825334548950195,18.716519788228528,60.94812071890909,90.3298733206331,"[7.0, 28.0, 49.2]","[32.0, 4.0, 47.0]"
2020-04-21 01:34:23.116915,249,33.8447,31.2701,23.787328720092773,-6.71127462387085,7.2619428634643555,358.3796362302706,188.9982637885369,119.13905799442412,"[6.0, 49.0, 32.1]","[32.0, 33.0, 14.3]"
2020-04-21 01:34:35.894249,250,33.7001,31.2321,24.12421417236328,-6.843936443328857,7.68366003036499,348.34378784643206,317.46740117033346,86.2267396295855,"[6.0, 13.0, 14.4]","[32.0, 59.0, 25.7]"
2020-04-21 01:34:48.665286,251,33.982,31.2891,24.584449768066406,-6.990847110748291,8.265307426452637,20.947507165512107,81.89484241266665,97.40826473489494,"[5.0, 33.0, 53.4]","[33.0, 27.0, 43.5]"
2020-04-21 01:35:01.477306,252,34.2677,31.346,25.177541732788086,-7.264622211456299,8.505963325500488,352.30728941895615,208.81392664630783,117.05609618438035,"[4.0, 54.0, 30.7]","[33.0, 55.0, 57.1]"
2020-04-21 01:35:14.442053,253,34.1527,31.365,25.673629760742188,-7.373929977416992,8.66796875,354.17085701512264,337.4767972212699,82.056840839401,"[4.0, 15.0, 6.4]","[34.0, 24.0, 7.0]"
2020-04-21 01:35:27.205245,254,33.9561,31.2511,25.94403839111328,-7.634269714355469,8.959874153137207,20.67949908021727,104.40577987919467,105.66054710142855,"[3.0, 35.0, 40.8]","[34.0, 52.0, 13.8]"
2020-04-21 01:35:40.009448,255,33.8447,31.308,26.243648529052734,-7.787822723388672,9.427918434143066,346.5550774160216,229.0072306632888,113.82012331035756,"[2.0, 56.0, 14.1]","[35.0, 20.0, 17.9]"
2020-04-21 01:35:52.777057,256,33.982,31.365,26.52803611755371,-7.911623477935791,9.891752243041992,0.6521177538139622,356.76661982309747,82.20697522754706,"[2.0, 19.0, 48.6]","[35.0, 46.0, 10.6]"
2020-04-21 01:36:05.544094,257,33.9338,31.2891,26.792043685913086,-8.232382774353027,10.634878158569336,18.088343875167872,125.97355018361398,113.22608809786321,"[1.0, 40.0, 20.2]","[36.0, 14.0, 11.0]"
2020-04-21 01:36:18.348162,258,34.1564,31.327,27.281002044677734,-8.357966423034668,11.168950080871582,343.1341319202175,249.964464018179,107.90678458358147,"[1.0, 0.0, 51.3]","[36.0, 42.0, 10.1]"
2020-04-21 01:36:31.153102,259,34.0822,31.2321,27.792757034301758,-8.343202590942383,11.52101993560791,7.718095832867838,16.34142224964685,82.38071474946467,"[-0.0, 21.0, 22.0]","[37.0, 10.0, 8.6]"
2020-04-21 01:36:43.924371,260,34.3271,31.346,28.184650421142578,-8.283187866210938,11.857192039489746,12.747741269733092,146.65047257496684,118.86720280507927,"[0.0, 15.0, 5.2]","[37.0, 35.0, 57.8]"
2020-04-21 01:36:56.748564,261,33.8373,31.3839,28.639360427856445,-8.401790618896484,12.31771469116211,342.23927639365553,271.44635835416375,102.45482513523974,"[0.0, 54.0, 34.7]","[38.0, 3.0, 56.2]"
2020-04-21 01:37:09.526892,262,33.7223,31.327,29.072011947631836,-8.667046546936035,13.036308288574219,14.119338877720033,35.35975272937261,87.23228007919477,"[1.0, 34.0, 3.9]","[38.0, 31.0, 55.4]"
2020-04-21 01:37:22.295391,263,33.7594,31.365,29.224422454833984,-8.85065746307373,13.817740440368652,7.250915162507196,165.13234975199606,121.75097697455035,"[2.0, 13.0, 32.7]","[38.0, 59.0, 55.9]"
2020-04-21 01:37:35.075660,264,34.1564,31.308,29.370222091674805,-8.917802810668945,14.567800521850586,344.0284871354227,291.87303627470567,96.0409974668418,"[2.0, 53.0, 0.9]","[39.0, 27.0, 58.1]"
2020-04-21 01:37:47.866436,265,34.0451,31.346,29.486398696899414,-8.848278999328613,15.371102333068848,18.427039295730463,55.65248722519603,92.74276741853434,"[3.0, 29.0, 26.3]","[39.0, 53.0, 52.8]"
2020-04-21 01:38:00.672894,266,34.0896,31.327,29.766475677490234,-8.808510780334473,16.442827224731445,0.5119458369026103,184.99804055771386,123.14538741436513,"[4.0, 8.0, 52.8]","[40.0, 21.0, 59.7]"
2020-04-21 01:38:13.478066,267,34.2083,31.2701,29.97532844543457,-8.804414749145508,17.333263397216797,348.0039449540889,312.39437037186025,90.43751027176333,"[4.0, 48.0, 18.1]","[40.0, 50.0, 9.7]"
2020-04-21 01:38:26.271320,268,34.1416,31.327,30.28341293334961,-8.852569580078125,17.83188247680664,21.487571930732308,77.50413043680481,99.47035348683515,"[5.0, 27.0, 42.0]","[41.0, 18.0, 23.5]"
2020-04-21 01:38:39.076561,269,34.1749,31.1942,30.472007751464844,-9.111860275268555,18.446731567382812,353.59460676145335,204.65207381896562,121.82091811165128,"[6.0, 7.0, 4.3]","[41.0, 46.0, 41.5]"
2020-04-21 01:38:51.888514,270,33.6815,31.365,30.642906188964844,-9.058043479919434,19.335981369018555,353.15693122764674,332.9853877664746,86.28881921895174,"[6.0, 43.0, 23.4]","[42.0, 12.0, 53.0]"
2020-04-21 01:39:04.682509,271,33.9041,31.308,30.87863540649414,-8.971226692199707,19.870454788208008,21.025292774874796,99.19778795781663,106.47515644297928,"[7.0, 22.0, 42.1]","[42.0, 41.0, 20.4]"
2020-04-21 01:39:17.538887,272,33.8522,31.2701,31.02832794189453,-9.253830909729004,20.5915584564209,346.94096858997534,223.90540720236942,117.46436391182868,"[8.0, 1.0, 58.6]","[43.0, 9.0, 53.6]"
2020-04-21 01:39:30.315837,273,34.097,31.2321,31.09496307373047,-9.516336441040039,21.345199584960938,358.0726292589189,352.4258264982281,84.25684477106212,"[8.0, 41.0, 12.7]","[43.0, 38.0, 33.0]"
2020-04-21 01:39:43.080324,274,34.0303,31.365,31.133018493652344,-9.719942092895508,22.060970306396484,17.64547270183695,120.68317252046724,112.84185580610414,"[9.0, 20.0, 24.2]","[44.0, 7.0, 19.1]"
2020-04-21 01:39:55.957800,275,34.1007,31.1942,31.072866439819336,-9.996404647827148,22.7946834564209,342.3815714321817,244.9639869041643,110.93223736700612,"[9.0, 56.0, 32.3]","[44.0, 33.0, 58.9]"
2020-04-21 01:40:08.789190,276,34.008,31.346,31.14739227294922,-10.195624351501465,23.73905372619629,4.281906635496701,12.741796443834241,84.69363536848444,"[10.0, 35.0, 38.2]","[45.0, 2.0, 59.5]"
2020-04-21 01:40:21.583393,277,33.9004,31.1942,31.252748489379883,-10.4907808303833,24.70749855041504,12.102117638437637,141.63425870510443,118.83290159506747,"[11.0, 14.0, 40.8]","[45.0, 32.0, 8.4]"
2020-04-21 01:40:34.386204,278,34.3271,31.2132,31.50598907470703,-10.500412940979004,25.527158737182617,339.78042707547115,266.4287374653323,104.87312874296363,"[11.0, 53.0, 39.9]","[46.0, 1.0, 26.1]"
2020-04-21 01:40:47.202534,279,33.8781,31.2511,31.516576766967773,-10.586170196533203,26.257465362548828,9.935820690330543,32.25939667641501,87.3874073356241,"[12.0, 32.0, 35.4]","[46.0, 30.0, 53.3]"
2020-04-21 01:41:00.021311,280,33.9004,31.365,31.653902053833008,-10.64083480834961,27.13042449951172,6.0942324449624685,161.29898804259645,122.52412706783912,"[13.0, 11.0, 26.9]","[47.0, 0.0, 30.4]"
2020-04-21 01:41:12.833017,281,34.1898,31.2321,31.744754791259766,-10.603425979614258,27.95314598083496,341.8926016045951,288.3446698325038,98.44400828101402,"[13.0, 47.0, 15.3]","[47.0, 28.0, 0.1]"
2020-04-21 01:41:25.637006,282,34.0525,31.4219,31.8040714263916,-10.594907760620117,29.08310890197754,16.688752736867634,51.787392456912535,92.54745132902865,"[14.0, 25.0, 58.6]","[47.0, 57.0, 58.0]"
2020-04-21 01:41:38.443356,283,34.3567,31.327,31.835695266723633,-10.714197158813477,30.079513549804688,0.4279209564548192,181.11894390163184,124.41014720335474,"[15.0, 4.0, 37.2]","[48.0, 28.0, 7.5]"
2020-04-21 01:41:51.227310,284,33.9264,31.2701,31.835161209106445,-10.772335052490234,30.758277893066406,345.06824000258456,309.39289496751695,92.2893999519964,"[15.0, 43.0, 11.0]","[48.0, 58.0, 29.3]"
2020-04-21 01:42:04.064551,285,33.7743,31.2891,31.56351089477539,-10.793139457702637,31.53291130065918,19.806508696735843,73.79824054788516,99.30261770119799,"[16.0, 21.0, 39.6]","[49.0, 29.0, 3.9]"
2020-04-21 01:42:16.836350,286,34.0191,31.308,31.374467849731445,-10.663249969482422,32.07938766479492,354.0586532287586,200.29825169481103,122.904937434824,"[16.0, 57.0, 5.8]","[49.0, 57.0, 29.2]"
2020-04-21 01:42:29.632999,287,34.0599,31.365,31.194578170776367,-10.4380521774292,32.685935974121094,350.33391970169254,329.3985634427139,88.20496731889628,"[17.0, 35.0, 23.8]","[50.0, 28.0, 30.2]"
2020-04-21 01:42:42.444229,288,34.1527,31.2891,31.122928619384766,-10.574675559997559,33.26601791381836,19.686655952275046,95.16663080024261,106.57803275225801,"[18.0, 13.0, 35.9]","[50.0, 59.0, 45.8]"
2020-04-21 01:42:55.276077,289,33.9486,31.2701,31.123245239257812,-10.927557945251465,34.6907958984375,346.66332566908255,219.78601083090803,119.61035470753333,"[18.0, 51.0, 41.8]","[51.0, 31.0, 16.6]"
2020-04-21 01:43:08.047296,290,34.0599,31.2891,31.226045608520508,-10.998225212097168,35.2410888671875,355.5166698052192,348.58378703348797,84.8535369271436,"[19.0, 29.0, 41.2]","[52.0, 3.0, 3.4]"
2020-04-21 01:43:20.881979,291,34.2714,31.1942,31.17876434326172,-11.289944648742676,35.64857864379883,17.692148507077526,115.87943217530557,113.06665782225677,"[20.0, 4.0, 39.3]","[52.0, 32.0, 38.2]"
2020-04-21 01:43:33.667430,292,34.2195,31.308,31.113346099853516,-11.464529037475586,36.163665771484375,341.79278180496993,239.30860393177207,114.25188005836158,"[20.0, 42.0, 25.5]","[53.0, 4.0, 57.3]"
2020-04-21 01:43:46.458884,293,33.7891,31.2891,31.147014617919922,-11.458168029785156,36.944576263427734,1.6616114955705017,7.735516230345955,84.40380995143327,"[21.0, 20.0, 4.3]","[53.0, 37.0, 34.4]"
2020-04-21 01:43:59.257582,294,34.2417,31.365,31.086963653564453,-11.289083480834961,37.677669525146484,12.433193982981079,135.6083652909957,118.13260229946606,"[21.0, 57.0, 35.4]","[54.0, 10.0, 29.9]"
2020-04-21 01:44:12.039799,295,34.3159,31.2701,31.234086990356445,-11.126537322998047,38.292686462402344,339.19493130698663,259.90320888324794,107.11011814898035,"[22.0, 34.0, 58.7]","[54.0, 43.0, 44.7]"
2020-04-21 01:44:24.902876,296,34.0117,31.2511,31.09317970275879,-10.967876434326172,38.88805389404297,6.850263522870241,26.525215519115648,86.69698449356252,"[23.0, 9.0, 21.9]","[55.0, 14.0, 43.7]"
2020-04-21 01:44:37.697641,297,34.0562,31.327,30.84986114501953,-11.027302742004395,39.55464172363281,6.104499926832291,154.53496974526277,120.90826823475417,"[23.0, 46.0, 28.9]","[55.0, 48.0, 37.5]"
2020-04-21 01:44:50.468032,298,34.0191,31.2891,30.661334991455078,-11.20313549041748,40.22820281982422,339.03672534278894,281.4821123960144,99.62845870574262,"[24.0, 23.0, 26.9]","[56.0, 22.0, 52.6]"
2020-04-21 01:45:03.310896,299,34.1527,31.308,30.462533950805664,-11.38015365600586,40.73895263671875,13.055156985217964,46.31376423342894,90.15768425165709,"[25.0, 0.0, 15.6]","[56.0, 57.0, 29.8]"
